City_ID,City,Lat,Lng,Max Temp,Humidity,Cloudiness,Wind Speed,Country,Date
0,kolonia,50.9333,6.95,282.11,88,0,1.03,DE,1728674792
1,utrik,11.2278,169.8474,300.83,80,100,8.63,MH,1728674996
2,college,64.8569,-147.8028,276.43,82,20,1.54,US,1728674998
3,ribeira grande,38.5167,-28.7,292.37,59,40,4.63,PT,1728674999
4,lautoka,-17.6167,177.4667,297.07,83,75,0.0,FJ,1728675002
5,oroqen zizhiqi,50.5667,123.7167,273.67,55,2,3.29,CN,1728675004
6,ust-tsilma,65.441,52.1498,271.52,71,100,5.46,RU,1728675005
7,ust-nera,64.5667,143.2,263.76,96,75,2.48,RU,1728675006
8,san luis de la loma,17.2706,-100.8939,301.74,74,36,2.69,MX,1728675008
9,adamstown,-25.066,-130.1015,294.51,87,66,5.7,PN,1728675010
10,fort mcmurray,56.7268,-111.381,282.92,53,75,3.09,CA,1728675011
11,atafu village,-8.5421,-172.5159,301.53,75,7,7.63,TK,1728674775
12,port saint john's,-31.6229,29.5448,291.25,87,20,1.22,ZA,1728675014
13,salinopolis,-0.6136,-47.3561,301.51,73,32,7.74,BR,1728674791
14,wailua homesteads,22.0669,-159.378,299.59,94,40,3.09,US,1728675018
15,puerto natales,-51.7236,-72.4875,284.4,54,75,7.2,CL,1728675019
16,isafjordur,66.0755,-23.124,270.46,75,75,3.3,IS,1728675021
17,tura,25.5198,90.2201,294.93,89,5,1.56,IN,1728675022
18,enewetak,11.3474,162.3373,302.06,74,33,5.33,MH,1728675024
19,kununurra,-15.7667,128.7333,296.14,78,31,1.54,AU,1728675025
20,kabansk,52.0486,106.6528,272.97,69,95,1.99,RU,1728675027
21,sidi ifni,29.3797,-10.173,294.42,85,0,1.96,MA,1728675028
22,nivala,63.9167,24.9667,279.24,87,100,2.47,FI,1728675029
23,whitehorse,60.7161,-135.0538,277.09,66,20,4.63,CA,1728675031
24,guajara mirim,-10.7828,-65.3394,307.24,43,75,4.12,BR,1728674831
25,severomorsk,69.0689,33.4162,281.25,91,100,7.44,RU,1728675034
26,pader palwo,2.8006,33.135,294.31,71,53,1.47,UG,1728675035
27,keflavik,64.0049,-22.5624,273.39,59,75,3.6,IS,1728675036
28,grytviken,-54.2811,-36.5092,274.18,82,48,3.67,GS,1728675037
29,portland,45.5234,-122.6762,290.34,61,100,2.57,US,1728674959
30,naze,28.3667,129.4833,294.66,76,65,3.4,JP,1728675040
31,lata,40.1629,-8.3327,292.87,47,100,2.33,PT,1728675041
32,porto novo,6.4965,2.6036,300.05,84,13,3.28,BJ,1728675042
33,margate,51.3813,1.3862,280.2,79,25,4.06,GB,1728675044
34,den helder,52.9599,4.7593,280.35,76,75,2.57,NL,1728675045
35,nagqu,31.5,92.0,273.95,34,100,1.61,CN,1728675046
36,vilyuysk,63.7553,121.6247,264.79,99,96,1.7,RU,1728675047
37,port alfred,-33.5906,26.891,287.69,94,100,2.92,ZA,1728675049
38,bilibino,68.0546,166.4372,254.83,97,70,1.41,RU,1728675050
39,papatowai,-46.5619,169.4708,284.46,60,5,3.19,NZ,1728675051
40,ushuaia,-54.8,-68.3,280.96,66,20,6.17,AR,1728675053
41,greenville,35.6127,-77.3663,294.33,45,0,2.06,US,1728675003
42,nemuro,43.3236,145.575,283.12,72,0,4.76,JP,1728675055
43,codrington,-38.2667,141.9667,280.37,84,3,2.74,AU,1728675056
44,tucuma,-0.1833,-50.05,303.29,64,100,6.02,BR,1728675058
45,aasiaat,68.7098,-52.8699,269.45,70,2,5.5,GL,1728675059
46,tazacorte,28.629,-17.9293,296.69,91,20,2.57,ES,1728675061
47,bethel,41.3712,-73.414,293.83,42,0,3.09,US,1728675062
48,badger,64.8,-147.5333,274.25,88,0,1.54,US,1728675063
49,hadibu,12.65,54.0333,299.36,75,67,1.82,YE,1728675065
50,jakobstad,63.6749,22.7026,278.17,68,68,5.01,FI,1728675066
51,afaahiti,-17.75,-149.2833,296.75,83,77,5.42,PF,1728675067
52,tual,-5.6667,132.75,301.09,80,100,6.38,ID,1728675069
53,mount gambier,-37.8333,140.7667,278.97,91,100,2.12,AU,1728675071
54,klyuchi,52.2667,79.1667,275.26,86,100,9.95,RU,1728675072
55,creel,27.75,-107.6333,295.25,25,36,4.36,MX,1728675073
56,yung shue wan,22.2333,114.1167,299.83,75,98,8.48,HK,1728675075
57,princeville,45.7668,-61.2985,283.45,80,100,6.69,CA,1728675076
58,richards bay,-28.783,32.0377,294.39,83,96,4.75,ZA,1728675077
59,leava,-14.3,-178.1667,300.04,81,31,3.68,WF,1728675079
60,port-aux-francais,-49.35,70.2167,273.41,78,81,21.86,TF,1728675080
61,kuching,1.55,110.3333,299.27,94,20,1.54,MY,1728675083
62,edinburgh of the seven seas,-37.0676,-12.3116,283.02,65,100,14.75,SH,1728675084
63,bardai,11.65,7.2333,301.18,43,76,2.26,NG,1728675086
64,izobil'nyy,45.3709,41.7084,287.48,63,12,3.46,RU,1728675089
65,stanley,54.868,-1.6985,279.55,79,0,1.54,GB,1728675008
66,chibougamau,49.9168,-74.3659,283.94,71,100,4.12,CA,1728675091
67,machico,32.7,-16.7667,298.5,76,40,7.2,PT,1728675093
68,kitimat,54.0524,-128.6534,283.66,53,97,0.89,CA,1728675094
69,vorgashor,67.5833,63.95,264.76,86,100,3.23,RU,1728675096
70,kiffa,16.6166,-11.4045,309.04,27,100,1.49,MR,1728675097
71,yangon,16.8053,96.1561,300.13,94,40,1.03,MM,1728675099
72,vuktyl,63.8567,57.3094,271.6,61,61,3.79,RU,1728675101
73,saipan,15.1355,145.701,300.54,83,0,2.06,MP,1728675104
74,waitangi,-43.9535,-176.5597,283.05,82,100,4.92,NZ,1728675106
75,cartagena,10.3997,-75.5144,299.94,94,40,1.54,CO,1728675107
76,shiqian,27.5225,108.2281,289.62,91,87,0.79,CN,1728675109
77,anadyr,64.75,177.4833,263.43,85,40,4.0,RU,1728675110
78,aripuana,-9.1667,-60.6333,312.45,22,91,1.59,BR,1728675112
79,san pedro de macoris,18.4616,-69.2972,303.44,68,4,2.95,DO,1728675113
80,okha,53.5739,142.9478,280.82,82,100,7.68,RU,1728675114
81,port mathurin,-19.6833,63.4167,295.21,74,100,11.73,MU,1728675116
82,hermanus,-34.4187,19.2345,285.82,85,13,1.64,ZA,1728675117
83,bure,10.7,37.0667,287.3,94,100,1.32,ET,1728675118
84,filadelfia,39.9523,-75.1638,294.85,39,20,5.66,US,1728675062
85,invercargill,-46.4,168.35,284.27,68,34,2.24,NZ,1728675122
86,nushki,29.5542,66.0215,295.29,15,0,1.33,PK,1728675123
87,kapuskasing,49.4169,-82.4331,285.15,100,100,9.77,CA,1728675125
88,ancud,-41.8697,-73.8203,282.88,76,87,6.46,CL,1728675126
89,borinskoye,52.4569,39.3713,283.89,74,3,4.65,RU,1728675127
90,hithadhoo,-0.6,73.0833,301.45,74,91,5.89,MV,1728675129
91,saint-philippe,-21.3585,55.7679,293.51,80,90,6.25,RE,1728675130
92,kievka,50.2619,71.5514,282.04,82,100,3.64,KZ,1728675132
93,blackmans bay,-43.0167,147.3167,281.22,75,7,0.45,AU,1728675133
94,punta arenas,-53.15,-70.9167,284.21,54,75,8.75,CL,1728674867
95,urangan,-25.3,152.9,291.87,78,9,2.87,AU,1728675136
96,natal,-5.795,-35.2094,301.51,65,40,9.26,BR,1728675091
97,georgetown,5.4112,100.3354,300.11,88,20,2.06,MY,1728675138
98,iqaluit,63.7506,-68.5145,275.0,93,75,2.06,CA,1728675140
99,karratha,-20.7377,116.8463,298.61,67,27,3.24,AU,1728675141
100,puerto ayora,-0.7393,-90.3518,295.12,85,64,3.13,EC,1728675142
101,constantia,44.1833,28.65,292.53,77,100,2.32,RO,1728675144
102,thompson,55.7435,-97.8558,283.24,50,20,2.57,CA,1728675145
103,tofol,5.3248,163.0078,301.86,74,60,5.19,FM,1728675147
104,margaret river,-33.95,115.0667,286.37,87,75,4.12,AU,1728675148
105,bubaque,11.2833,-15.8333,300.4,77,100,2.61,GW,1728675150
106,polewali,-3.4324,119.3435,298.04,89,93,1.6,ID,1728675151
107,longyearbyen,78.2186,15.6401,277.06,75,75,14.4,SJ,1728674656
108,masterton,-40.9597,175.6575,282.89,72,3,0.68,NZ,1728675155
109,namibe,-15.1961,12.1522,293.43,84,22,1.9,AO,1728675156
110,lompoc,34.6391,-120.4579,295.89,84,100,3.09,US,1728675157
111,port blair,11.6667,92.75,299.17,89,40,1.03,IN,1728675158
112,nar'yan-mar,67.6713,53.087,272.73,56,100,11.51,RU,1728675160
113,susuman,62.7833,148.1667,264.73,97,94,0.35,RU,1728675162
114,hamilton,39.1834,-84.5333,297.7,41,0,2.06,US,1728674941
115,surami,42.0243,43.5556,285.84,89,9,1.59,GE,1728675165
116,quellon,-43.1167,-73.6167,283.34,75,84,6.14,CL,1728675166
117,olonkinbyen,70.9221,-8.7187,270.89,90,100,16.74,SJ,1728675167
118,ola,59.5833,151.2833,274.04,76,100,2.69,RU,1728675169
119,albany,42.6001,-73.9662,291.84,48,0,0.45,US,1728675113
120,gazojak,41.1875,61.4036,287.62,53,74,2.73,TM,1728675172
121,reguiba,33.5639,6.7033,302.18,42,0,2.57,DZ,1728675173
122,igarka,67.4667,86.5833,263.42,92,100,3.52,RU,1728675175
123,mutuali,-14.8706,37.0044,297.82,52,88,3.9,MZ,1728675176
124,kaa-khem,51.6833,94.7333,280.01,69,98,1.45,RU,1728675177
125,hammerfest,70.6634,23.6821,278.4,81,75,5.66,NO,1728675179
126,bredasdorp,-34.5322,20.0403,286.4,89,90,0.88,ZA,1728675180
127,as sulayyil,20.4607,45.5779,301.41,20,1,2.84,SA,1728675182
128,tazovsky,67.4667,78.7,270.02,91,100,3.17,RU,1728675183
129,necochea,-38.5473,-58.7368,286.33,69,0,7.33,AR,1728675002
130,manuguru,17.981,80.7547,297.01,95,79,0.43,IN,1728675186
131,mugia,43.1041,-9.2179,293.1,92,90,13.68,ES,1728675188
132,conde,-7.2597,-34.9075,300.85,61,40,6.17,BR,1728675171
133,emerald,-23.5333,148.1667,289.45,86,8,2.88,AU,1728675190
134,arraial do cabo,-22.9661,-42.0278,298.07,83,75,9.77,BR,1728675052
135,suihua,46.6406,126.9969,277.43,54,3,3.19,CN,1728675193
136,east ballina,-28.8667,153.5833,288.96,84,8,1.86,AU,1728675195
137,gulf shores,30.246,-87.7008,301.12,47,0,3.09,US,1728675196
138,mossel bay,-34.1831,22.146,288.11,86,96,3.49,ZA,1728675197
139,nova sintra,14.8667,-24.7167,300.25,83,100,10.03,CV,1728675199
140,gozyeri,40.866,32.5417,287.5,67,89,1.97,TR,1728675200
141,minggang,32.4586,114.0486,292.5,49,79,2.04,CN,1728675201
142,okhotsk,59.3833,143.3,278.36,86,100,10.99,RU,1728675203
143,pudozh,61.8099,36.5345,283.57,83,100,5.91,RU,1728675204
144,penzance,50.1186,-5.5371,282.53,76,100,5.15,GB,1728675207
145,kinablangan,7.6947,126.5503,297.63,87,81,2.03,PH,1728675208
146,revda,56.801,59.9303,269.64,77,100,4.65,RU,1728675194
147,mabaruma,8.2,-59.7833,299.98,91,100,1.61,GY,1728675211
148,talnakh,69.4865,88.3972,262.81,94,100,1.26,RU,1728675212
149,inari,68.906,27.0288,276.72,89,100,4.72,FI,1728675214
150,colonia,50.9333,6.95,282.11,88,0,0.51,DE,1728675174
151,saldanha,-33.0117,17.9442,287.78,89,59,5.06,ZA,1728675216
152,sao vicente,-23.9631,-46.3919,298.14,34,75,1.34,BR,1728675074
153,kavieng,-2.5744,150.7967,301.08,77,12,5.3,PG,1728675218
154,lodwar,3.1191,35.5973,303.22,32,39,4.5,KE,1728675220
155,barbosa,5.9317,-73.6151,294.55,91,99,1.41,CO,1728675221
156,polyarnyy,69.1989,33.4478,281.32,91,100,9.02,RU,1728675223
157,la passe,45.5549,-0.8967,287.1,81,100,5.84,FR,1728675224
158,mikomeseng,2.1361,10.6132,294.56,100,97,1.64,GQ,1728675226
159,ocean city,39.2776,-74.5746,294.36,46,0,2.68,US,1728675227
160,hawaiian paradise park,19.5933,-154.9731,300.3,80,20,2.06,US,1728675228
161,nantucket,41.2835,-70.0995,289.21,55,0,10.29,US,1728675031
162,avarua,-21.2078,-159.775,297.18,73,75,6.17,CK,1728675231
163,villa rica,33.7321,-84.9191,296.28,46,0,0.45,US,1728675233
164,puerto leguizamo,-0.1934,-74.7819,307.49,42,95,2.26,CO,1728675234
165,kodiak,57.79,-152.4072,280.88,93,100,17.49,US,1728675191
166,alofi,-19.0595,-169.9187,299.09,78,75,3.6,NU,1728675237
167,sitka,57.0531,-135.33,284.09,62,40,4.63,US,1728675090
168,kirensk,57.7853,108.1119,268.93,94,99,0.73,RU,1728675239
169,port elizabeth,-33.918,25.5701,288.32,93,0,1.03,ZA,1728675241
170,refahiye,39.9008,38.7667,286.77,60,15,1.38,TR,1728675242
171,bam,29.106,58.357,298.34,11,0,2.87,IR,1728675243
172,basoko,1.2391,23.616,295.34,96,75,2.2,CD,1728675245
173,kuanda,56.3161,116.0806,267.66,74,1,0.5,RU,1728675246
174,muisne,0.6,-80.0333,298.39,80,91,4.49,EC,1728675247
175,sinabang,2.4803,96.3801,298.59,91,100,3.07,ID,1728675249
176,bocas del toro,9.3333,-82.25,301.63,77,61,5.34,PA,1728675251
177,aleksandriyskaya,44.2272,43.3453,287.5,58,100,2.42,RU,1728675252
178,onega,63.9061,38.1404,281.0,87,100,7.68,RU,1728675253
179,petropavlovsk-kamchatsky,53.0452,158.6483,276.48,60,40,3.0,RU,1728675255
180,yemva,62.59,50.8594,272.4,52,100,4.78,RU,1728675256
181,cidreira,-30.1811,-50.2056,293.63,91,100,4.11,BR,1728675257
182,tadine,-21.55,167.8833,293.84,62,100,5.47,NC,1728675258
183,rupea,46.0333,25.2167,286.94,81,100,3.47,RO,1728675260
184,lihue,21.9789,-159.3672,299.92,78,40,3.09,US,1728675261
185,robertsport,6.7533,-11.3686,298.27,86,100,3.98,LR,1728675263
186,klaksvik,62.2266,-6.589,277.18,58,98,7.42,FO,1728675264
187,mpika,-11.8343,31.4529,289.35,80,100,3.39,ZM,1728675266
188,rio branco,-9.9747,-67.81,300.49,78,75,7.2,BR,1728675175
189,fairbanks,64.8378,-147.7164,276.44,83,20,1.54,US,1728675269
190,nouadhibou,20.931,-17.0347,293.16,92,100,6.79,MR,1728675271
191,tournus,46.5676,4.9057,281.52,94,88,1.62,FR,1728675125
192,kourou,5.1552,-52.6478,302.4,72,98,3.85,GF,1728675078
193,vadso,70.0744,29.7487,283.24,81,75,8.23,NO,1728675275
194,yellowknife,62.456,-114.3525,275.44,100,100,1.54,CA,1728675276
195,antalaha,-14.9003,50.2788,295.0,83,8,4.75,MG,1728675277
196,at taj,24.2049,23.2857,300.99,20,2,3.95,LY,1728675278
197,yangambi,0.8102,24.4336,294.34,98,98,1.21,CD,1728675280
198,broken hill,-31.95,141.4333,284.05,57,84,7.32,AU,1728675281
199,morehead city,34.7229,-76.726,295.17,55,0,4.12,US,1728675283
200,marsabit,2.3284,37.9899,296.3,40,62,9.16,KE,1728675284
201,tamiahua,21.2667,-97.45,301.57,58,11,4.18,MX,1728675286
202,livny,52.4253,37.6069,285.87,66,6,5.18,RU,1728675287
203,thunder bay,48.4001,-89.3168,291.1,42,40,6.69,CA,1728675288
204,wynyard,-41.0,145.7167,279.37,83,9,2.7,AU,1728675290
205,vilyuchinsk,52.9306,158.4028,277.3,85,100,10.06,RU,1728675292
206,tiksi,71.6872,128.8694,262.64,96,67,3.04,RU,1728675293
207,malabar,-33.9667,151.25,289.99,72,75,10.8,AU,1728675295
208,northam,51.0333,-4.2167,282.38,87,100,3.37,GB,1728675296
209,qaqortoq,60.7167,-46.0333,276.78,59,100,1.28,GL,1728675297
210,tindouf,27.6711,-8.1474,304.4,27,0,6.17,DZ,1728675298
211,roma,43.2128,-75.4557,290.2,61,40,4.12,US,1728675285
212,uturoa,-16.7333,-151.4333,298.81,74,0,6.44,PF,1728675301
213,bandarbeyla,9.4942,50.8122,299.13,84,62,4.84,SO,1728675303
214,isangel,-19.55,169.2667,296.29,75,48,6.0,VU,1728675304
215,katabu,-4.9333,122.5167,297.34,96,54,1.58,ID,1728675305
216,bikenibeu village,1.3673,173.1241,301.13,78,20,3.6,KI,1728675307
217,kenitra,34.261,-6.5802,295.57,93,0,3.62,MA,1728675309
218,lebu,-37.6167,-73.65,285.24,74,100,4.31,CL,1728675310
219,aguilares,-27.4338,-65.6143,301.58,34,0,2.13,AR,1728675141
220,cabo san lucas,22.8909,-109.9124,304.68,72,0,5.14,MX,1728675313
221,sao joao da barra,-21.6403,-41.0511,297.2,90,90,11.37,BR,1728675315
222,tara,56.8944,74.371,269.87,74,70,6.27,RU,1728675316
223,ilhabela,-23.7781,-45.3581,295.1,97,100,4.77,BR,1728675317
224,el dorado,38.7666,-120.5177,299.18,27,27,1.34,US,1728675143
225,newman,37.3138,-121.0208,303.8,16,5,0.84,US,1728675320
226,san patricio,28.017,-97.5169,304.12,34,0,5.4,US,1728675322
227,uvalde,29.3669,-99.767,306.71,28,0,2.57,US,1728675315
228,udachny,66.4167,112.4,262.78,95,100,3.13,RU,1728675326
229,along,28.1667,94.7667,290.94,98,100,0.48,IN,1728675327
230,puerto ayacucho,5.6639,-67.6236,304.01,65,100,2.72,VE,1728675058
231,santiago juxtlahuaca,17.3333,-98.0167,296.38,32,1,2.89,MX,1728675330
232,toliara,-23.35,43.6667,296.61,78,45,0.12,MG,1728675332
233,pointe aux piments,-20.0628,57.5131,295.66,77,70,9.07,MU,1728675333
234,thinadhoo,0.5333,72.9333,301.39,74,100,6.72,MV,1728675335
235,bozoum,6.3193,16.3799,294.72,94,46,0.23,CF,1728675336
236,la'ie,21.6477,-157.9253,300.4,80,97,2.68,US,1728675338
237,st. john's,47.5649,-52.7093,284.42,85,40,7.2,CA,1728675340
238,carutapera,-1.195,-46.02,301.25,67,79,4.16,BR,1728675341
239,olyokminsk,60.3736,120.4264,267.2,96,42,1.22,RU,1728675343
240,diego de almagro,-26.3667,-70.05,300.49,14,0,6.74,CL,1728675345
241,saint-pierre,-21.3393,55.4781,294.97,64,20,6.69,RE,1728675346
242,desert hot springs,33.9611,-116.5017,308.6,9,0,3.09,US,1728675348
243,goondiwindi,-28.55,150.3167,289.19,74,0,3.61,AU,1728675349
244,srivardhan,18.0333,73.0167,299.24,86,100,1.77,IN,1728675351
245,grand gaube,-20.0064,57.6608,295.58,77,55,2.68,MU,1728675353
246,xixiang,35.1628,112.865,291.69,53,97,1.9,CN,1728675354
247,laminusa,5.5549,120.9136,301.44,75,97,0.96,PH,1728675355
248,misratah,32.3754,15.0925,298.78,68,64,5.56,LY,1728675356
249,mormugao,15.4,73.8,299.74,83,40,1.54,IN,1728675358
250,ystalyfera,51.7672,-3.7808,283.26,71,99,1.71,GB,1728675360
251,constitucion,-35.3333,-72.4167,288.18,74,59,5.62,CL,1728675361
252,geraldton,-28.7667,114.6,293.38,88,100,4.12,AU,1728675364
253,kodinsk,58.6881,99.1844,267.27,81,82,0.26,RU,1728675366
254,fairmont,39.4851,-80.1426,294.76,40,1,1.79,US,1728675354
255,sao miguel do araguaia,-13.275,-50.1628,304.82,43,97,4.42,BR,1728675369
256,elliot lake,46.3834,-82.6331,293.27,51,53,5.25,CA,1728675214
257,howrah,22.5892,88.3103,302.15,89,40,3.09,IN,1728675372
258,kolonia town,6.964,158.206,298.15,100,75,0.0,FM,1728675373
259,west island,-12.1568,96.8225,300.14,89,75,7.72,CC,1728675375
260,berber,18.0216,33.983,307.56,23,83,4.51,SD,1728675376
261,howard springs,-12.497,131.047,300.1,93,21,1.33,AU,1728675378
262,ormara,25.2088,64.6357,300.77,82,6,3.83,PK,1728675379
263,fortaleza,-3.7227,-38.5247,302.22,82,20,6.17,BR,1728675165
264,penonome,8.5167,-80.3667,299.26,85,100,1.34,PA,1728675382
265,bera,24.0833,89.6167,299.73,83,2,2.86,BD,1728675384
266,priargunsk,50.3691,119.1012,273.77,41,76,2.42,RU,1728675385
267,smyrna,33.884,-84.5144,298.21,38,0,2.06,US,1728675387
268,cabedelo,-6.9811,-34.8339,301.52,69,100,6.16,BR,1728675227
269,machilipatnam,16.1667,81.1333,299.95,84,42,2.4,IN,1728675390
270,mukalla,14.5425,49.1242,299.08,75,3,0.39,YE,1728675392
271,olinda,-8.0089,-34.8553,301.0,65,40,5.14,BR,1728675393
272,egilsstadir,65.2653,-14.3948,273.1,69,20,5.66,IS,1728675394
273,tsetserleg,47.475,101.4542,276.99,51,9,2.45,MN,1728675396
274,tolanaro,-25.0319,46.9987,295.19,88,20,8.23,MG,1728675397
275,yaren,-0.5472,166.916,301.49,71,16,5.44,NR,1728675400
276,sisimiut,66.9395,-53.6735,275.67,54,7,3.72,GL,1728675402
277,weno,7.4515,151.8468,301.12,83,100,2.06,FM,1728675403
278,villa el carmen,11.9801,-86.5057,302.43,72,100,3.87,NI,1728675405
279,port sudan,19.6175,37.2164,302.79,75,4,1.21,SD,1728675407
280,kenai,60.5544,-151.2583,278.79,82,0,9.26,US,1728675408
281,port lincoln,-34.7333,135.8667,286.3,78,100,8.32,AU,1728675410
282,callao,-12.0667,-77.15,291.31,72,0,5.14,PE,1728675411
283,mananjary,-21.2167,48.3333,294.33,83,61,3.23,MG,1728675412
284,saint croix,17.7397,-64.7388,304.4,70,0,3.09,VI,1728675414
285,harnosand,62.6323,17.9379,272.15,68,1,2.82,SE,1728675415
286,pyhajarvi,67.0701,27.2176,277.89,87,100,4.58,FI,1728675417
287,sidi khaled,34.387,4.9879,300.23,34,67,3.32,DZ,1728675418
288,taltal,-25.4,-70.4833,291.89,68,28,2.83,CL,1728675419
289,beinamar,8.6698,15.3813,298.22,79,27,0.57,TD,1728675420
290,yorkton,51.2167,-102.4677,286.06,44,0,2.06,CA,1728675422
291,cuyo,10.8525,121.0086,301.85,77,99,4.24,PH,1728675423
292,coruripe,-10.1256,-36.1756,298.33,70,52,4.74,BR,1728675425
293,wellington,-41.2866,174.7756,283.96,81,17,5.14,NZ,1728675415
294,north bend,43.4065,-124.2243,291.63,69,100,2.53,US,1728675427
295,jamestown,42.097,-79.2353,293.72,40,0,6.17,US,1728675429
296,upata,8.0086,-62.3989,304.12,51,83,3.87,VE,1728675432
297,kapshagay,43.8833,77.0833,285.6,81,100,2.62,KZ,1728675434
298,sona,45.4388,10.8255,286.4,83,20,2.57,IT,1728675435
299,gerash,27.6652,54.1371,299.23,29,0,1.93,IR,1728675436
300,kavaratti,10.5669,72.642,299.35,87,100,7.48,IN,1728675437
301,maamba,-17.3667,27.15,294.87,26,0,1.46,ZM,1728675438
302,erenhot,43.6475,111.9767,284.03,53,0,1.53,CN,1728675440
303,dudinka,69.4058,86.1778,265.01,96,100,1.1,RU,1728675441
304,yalvac,38.2956,31.1778,290.44,59,23,0.49,TR,1728675442
305,zbarazh,49.6636,25.7762,283.31,83,100,5.79,UA,1728675444
306,runing,33.0011,114.3542,292.54,57,97,2.78,CN,1728675445
307,tai'an,36.1853,117.12,288.45,42,100,1.62,CN,1728675446
308,saudarkrokur,65.7461,-19.6394,271.52,74,93,1.75,IS,1728675448
309,copiapo,-27.3667,-70.3333,299.99,26,2,4.96,CL,1728675184
310,christchurch,-43.5333,172.6333,281.43,93,9,2.07,NZ,1728675451
311,tarko-sale,64.9225,77.785,269.18,92,100,3.62,RU,1728675452
312,yuzhno-kurilsk,44.0306,145.8556,283.55,68,32,7.73,RU,1728675454
313,sittwe,20.15,92.9,299.56,84,12,2.99,MM,1728675455
314,miles city,46.4083,-105.8406,292.69,30,0,8.23,US,1728675457
315,hasaki,35.7333,140.8333,293.83,70,1,3.37,JP,1728675458
316,katsuura,35.1333,140.3,293.52,75,6,3.71,JP,1728675459
317,caleta de carquin,-11.0925,-77.6267,292.78,76,20,4.08,PE,1728675461
318,luderitz,-26.6481,15.1594,289.37,71,0,4.64,NA,1728675462
319,yanbu,24.0891,38.0637,302.17,74,0,3.09,SA,1728675463
320,happy valley-goose bay,53.3168,-60.3315,278.32,93,100,3.6,CA,1728675465
321,flying fish cove,-10.4217,105.6791,298.97,88,100,4.63,CX,1728675466
322,fomboni,-12.28,43.7425,298.71,72,5,0.51,KM,1728675468
323,mahina,-17.5065,-149.489,301.02,69,75,2.57,PF,1728675469
324,cadale,2.7603,46.3222,298.96,87,92,8.03,SO,1728675470
325,hami,42.8,93.45,291.25,22,96,3.53,CN,1728675472
326,pimentel,-6.8367,-79.9342,295.31,64,0,9.26,PE,1728675473
327,laurel,39.0993,-76.8483,294.85,42,0,4.63,US,1728675238
328,qarqaraly,49.4058,75.4742,280.88,81,100,6.76,KZ,1728675476
329,rabo de peixe,37.8,-25.5833,291.88,99,40,5.66,PT,1728675479
330,kone,-21.0595,164.8658,294.68,75,88,2.08,NC,1728675482
331,manokwari,-0.8667,134.0833,299.23,75,7,2.19,ID,1728675484
332,duluth,46.7833,-92.1066,294.57,41,40,6.17,US,1728675370
333,podporozh'ye,60.9112,34.1706,285.29,87,100,5.24,RU,1728675488
334,tsumeb,-19.2333,17.7167,299.62,17,0,3.69,NA,1728675489
335,novodvinsk,64.4165,40.8122,277.01,86,100,6.86,RU,1728675490
336,itoman,26.1247,127.6694,299.16,78,75,4.12,JP,1728675491
337,mount isa,-20.7333,139.5,294.02,35,1,0.0,AU,1728675493
338,altamira,-3.2033,-52.2064,309.2,41,40,4.63,BR,1728675494
339,whistler,50.1164,-122.9695,283.72,54,40,1.54,CA,1728675240
340,huarmey,-10.0681,-78.1522,293.63,73,15,4.78,PE,1728675497
341,monrovia,6.3005,-10.7969,297.48,88,100,2.61,LR,1728675499
342,turkestan,43.3333,68.25,288.8,52,100,3.8,KZ,1728675502
343,imbituva,-25.23,-50.6044,291.97,98,100,1.32,BR,1728675503
344,nova vicosa,-17.8919,-39.3719,299.44,71,81,5.27,BR,1728675505
345,priozersk,61.0393,30.1291,284.31,89,100,3.16,RU,1728675506
346,anamosa,42.1083,-91.2852,302.65,31,0,4.63,US,1728675457
347,achacachi,-16.05,-68.6833,287.8,39,4,5.74,BO,1728675509
348,ambodifotatra,-16.9833,49.85,296.59,80,15,6.74,MG,1728675511
349,haiku-pauwela,20.9219,-156.3051,299.96,75,20,7.6,US,1728675512
350,tamanrasset,22.785,5.5228,302.1,18,40,1.54,DZ,1728675514
351,karungdong,5.8844,121.263,300.01,83,100,0.45,PH,1728675515
352,arochukwu,5.3898,7.914,297.17,96,99,1.55,NG,1728675516
353,banamba,13.55,-7.45,303.05,54,99,2.65,ML,1728675518
354,daru,-9.0763,143.2092,298.97,87,100,7.91,PG,1728675519
355,fort bragg,35.139,-79.006,295.09,37,0,3.09,US,1728675521
356,marquette,46.5333,-87.6335,290.95,66,1,4.47,US,1728675522
357,papao,-17.75,-149.55,300.97,84,77,6.13,PF,1728675524
358,weligama,5.9667,80.4167,300.88,90,97,7.91,LK,1728675525
359,koh kong,11.6175,102.9806,298.55,88,65,1.78,KH,1728675527
360,santa ana,33.7456,-117.8678,304.14,49,0,1.79,US,1728675528
361,kill devil hills,36.0307,-75.676,292.16,53,0,4.63,US,1728675529
362,ulladulla,-35.35,150.4667,287.38,70,99,6.78,AU,1728675532
363,floro,61.5996,5.0328,277.13,87,40,1.54,NO,1728675533
364,great falls,47.5002,-111.3008,289.35,47,0,1.54,US,1728675310
365,remire-montjoly,4.9167,-52.2667,304.17,74,20,5.14,GF,1728675538
366,dek'emhare,15.07,39.0475,291.08,48,2,2.24,ER,1728675539
367,huanuni,-18.2667,-66.85,288.45,5,0,4.76,BO,1728675541
368,ascension,30.2169,-90.9001,304.27,42,0,2.24,US,1728675542
369,dryden,49.7833,-92.7503,283.31,71,100,5.14,CA,1728675544
370,kerikeri,-35.2268,173.9474,285.88,84,3,2.24,NZ,1728675546
371,winnemucca,40.973,-117.7357,297.18,16,0,3.09,US,1728675547
372,mata-utu,-13.2816,-176.1745,300.76,81,56,7.85,WF,1728675549
373,leh,34.1667,77.5833,276.07,25,0,0.74,IN,1728675550
374,rongelap,11.1635,166.8941,301.44,78,81,7.29,MH,1728675552
375,kilju,40.9642,129.3278,284.43,62,0,2.34,KP,1728675553
376,dauphin,51.1494,-100.0502,287.23,41,0,4.63,CA,1728675555
377,bousso,10.4795,16.7117,300.45,66,37,2.0,TD,1728675556
378,al kharijah,25.4514,30.5464,299.27,27,0,2.81,EG,1728675558
379,bansi,27.1833,82.9333,296.0,62,93,3.67,IN,1728675559
380,marsh harbour,26.5412,-77.0636,300.43,69,38,10.01,BS,1728675560
381,muravlenko,63.7898,74.523,267.64,92,67,3.72,RU,1728675562
382,sokcho,38.2083,128.5911,291.49,59,0,6.69,KR,1728675564
383,sydney,-33.8679,151.2073,289.76,74,75,10.8,AU,1728675318
384,tchintabaraden,15.8969,5.7985,307.32,11,100,3.97,NE,1728675567
385,verkhnevilyuysk,63.4453,120.3167,263.45,97,41,1.93,RU,1728675568
386,jahanian shah,31.8055,72.2771,299.52,20,0,2.08,PK,1728675570
387,holualoa,19.6228,-155.9522,300.12,78,0,5.66,US,1728675571
388,sao gabriel da cachoeira,-0.1303,-67.0892,306.04,62,40,1.54,BR,1728675574
389,yelizovo,53.1873,158.3805,277.23,60,40,3.0,RU,1728675576
390,chela,34.069,104.4619,279.6,96,100,0.89,CN,1728675577
391,petrolina,-9.3986,-40.5008,308.18,29,20,2.06,BR,1728675579
392,ezhva,61.8128,50.7283,271.03,64,0,3.0,RU,1728675580
393,kariba,-16.5167,28.8,296.39,33,0,1.45,ZW,1728675582
394,ta`u,-14.2336,-169.5144,300.03,79,16,8.52,AS,1728675583
395,praia da vitoria,38.7333,-27.0667,292.29,59,40,7.95,PT,1728675585
396,senanga,-16.1167,23.2667,298.08,16,0,5.66,ZM,1728675586
397,acarau,-2.8856,-40.12,300.43,67,19,8.67,BR,1728675588
398,mitu,1.1983,-70.1733,304.08,58,100,1.76,CO,1728675589
399,andergrove,-21.0833,149.1833,294.98,81,17,5.65,AU,1728675590
400,pirane,-25.7324,-59.1088,302.92,35,1,3.09,AR,1728675567
401,kingston,17.997,-76.7936,301.68,79,75,5.14,JM,1728675168
402,iskateley,67.6803,53.1512,272.75,56,100,11.5,RU,1728675594
403,gatton,-27.55,152.2833,286.6,84,10,0.91,AU,1728675596
404,bodaybo,57.8506,114.1933,268.26,92,58,0.67,RU,1728675450
405,fortuna,40.5982,-124.1573,293.34,53,0,0.0,US,1728675598
406,east london,-33.0153,27.9116,290.94,78,100,1.68,ZA,1728675599
407,aberdeen,57.1437,-2.0981,279.56,96,100,1.03,GB,1728675553
408,sabzevar,36.2126,57.6819,294.95,22,7,1.69,IR,1728675604
409,abalak,58.1286,68.5944,269.68,77,13,4.74,RU,1728675605
410,kalmunai,7.4167,81.8167,298.87,87,92,3.39,LK,1728675607
411,laguna,38.421,-121.4238,299.62,47,0,3.09,US,1728675608
412,wainwright,52.839,-110.8572,285.22,38,100,5.2,CA,1728675610
413,kimbe,-5.5502,150.1429,297.01,92,20,1.72,PG,1728675611
414,cova figueira,14.8905,-24.2934,294.42,86,100,8.62,CV,1728675612
415,san agustin de valle fertil,-30.6335,-67.4682,299.18,29,3,6.69,AR,1728675614
416,mamuju,-2.6748,118.8885,298.81,88,100,1.11,ID,1728675615
417,kish,26.5578,54.0194,304.3,62,0,4.12,IR,1728675537
418,tyuratam,45.6507,63.3156,282.19,60,8,4.89,KZ,1728675619
419,katav-ivanovsk,54.7531,58.1956,269.21,85,100,3.09,RU,1728675620
420,ilulissat,69.2167,-51.1,273.16,47,0,0.0,GL,1728675622
421,labrador city,52.9463,-66.9114,278.1,75,75,6.17,CA,1728675623
422,greymouth,-42.4667,171.2,281.48,80,97,2.38,NZ,1728675625
423,fredericksburg,38.3032,-77.4605,295.55,39,0,3.6,US,1728675356
424,rabaul,-4.1967,152.1721,299.33,79,8,3.01,PG,1728675628
425,sorong,-0.8833,131.25,298.29,89,92,2.59,ID,1728675629
426,viedma,-40.8135,-62.9967,290.95,14,25,5.83,AR,1728675443
427,marsa alam,25.0757,34.8918,300.29,52,0,1.45,EG,1728675633
428,benguela,-12.5763,13.4055,297.34,80,34,2.99,AO,1728675634
429,soio,-6.1349,12.3689,298.45,86,19,3.75,AO,1728675636
430,sinop,41.7711,34.8709,289.82,64,99,2.96,TR,1728675639
431,salyan,39.5936,48.9805,293.29,80,100,2.78,AZ,1728675640
432,tambopata,-12.7333,-69.1833,306.09,52,20,4.12,PE,1728675642
433,jiwani,25.05,61.7417,301.47,76,8,3.65,PK,1728675643
434,sakon nakhon,17.3333,103.8333,295.28,86,21,2.35,TH,1728675645
435,nadym,65.5333,72.5167,271.15,78,100,3.62,RU,1728675424
436,bemidji,47.4736,-94.8803,292.14,42,0,5.66,US,1728675648
437,merizo village,13.2658,144.6691,299.25,94,24,1.15,GU,1728675649
438,zamora,-4.0692,-78.9567,297.53,92,88,1.47,EC,1728675651
439,fale old settlement,-9.3852,-171.2468,301.15,77,27,8.14,TK,1728675652
440,tirodi,21.6833,79.7,296.23,89,18,1.25,IN,1728675654
441,rumonge,-3.9736,29.4386,293.74,92,100,0.35,BI,1728675655
442,mishan,45.55,131.8833,280.3,67,3,2.06,CN,1728675656
443,wamba,8.9333,8.6,298.14,84,25,0.65,NG,1728675658
444,coquimbo,-29.9533,-71.3436,292.0,61,20,6.69,CL,1728675578
445,khash,28.2211,61.2158,292.74,17,0,1.85,IR,1728675661
446,rice lake,45.5061,-91.7382,295.07,38,0,5.14,US,1728675662
447,narasannapeta,18.4167,84.05,298.56,87,19,1.01,IN,1728675664
448,malabrigo,-29.3464,-59.9696,301.79,28,0,3.79,AR,1728675665
449,oodweyne,9.4092,45.064,298.7,51,85,3.49,SO,1728675667
450,muang phonsavan,19.45,103.2167,288.42,98,2,0.78,LA,1728675668
451,ushtobe,45.2514,77.9838,286.13,69,100,8.46,KZ,1728675670
452,yinchuan,38.4681,106.2731,289.17,55,100,2.4,CN,1728675671
453,whakatane,-37.9585,176.9854,284.55,86,85,1.79,NZ,1728675673
454,pombas,17.1503,-25.0201,294.49,85,100,5.76,CV,1728675674
455,brisas de zicatela,15.8369,-97.0419,303.44,74,20,4.12,MX,1728675676
456,al manzalah,31.1582,31.937,297.53,73,0,2.6,EG,1728675678
457,kiunga,-6.1219,141.2906,295.66,100,98,0.15,PG,1728675679
458,pontal do parana,-25.6533,-48.5128,294.12,94,75,3.6,BR,1728675681
459,chonchi,-42.6128,-73.8092,285.99,74,70,4.03,CL,1728675682
460,terek,43.4833,44.1361,288.85,58,100,0.55,RU,1728675684
461,dwarka,22.2394,68.9678,300.86,68,100,5.3,IN,1728675685
462,harstad,68.799,16.5293,276.01,86,93,7.55,NO,1728675686
463,pembroke,45.8168,-77.1162,291.03,62,90,4.39,CA,1728675688
464,canutama,-6.5339,-64.3831,312.81,22,99,1.91,BR,1728675689
465,puerto madero,14.7208,-92.4215,305.26,66,40,5.14,MX,1728675691
466,kotido,2.9806,34.1331,299.0,40,55,1.76,UG,1728675692
467,shiyan,32.6475,110.7781,290.59,73,100,1.12,CN,1728675693
468,ubari,26.5921,12.7805,305.59,15,65,4.66,LY,1728675695
469,lucapa,-8.4192,20.7447,297.06,55,100,3.24,AO,1728675696
470,altamont,42.2068,-121.7372,292.53,49,0,2.06,US,1728675698
471,arroyo,41.6096,-4.7969,289.9,72,20,5.14,ES,1728675700
472,harsin,34.2721,47.5861,289.15,22,0,1.4,IR,1728675701
473,kobelyaky,49.1489,34.1965,290.12,67,20,3.74,UA,1728675703
474,razam,18.4667,83.6667,297.69,93,21,0.83,IN,1728675704
475,balabac,7.9868,117.0645,300.88,76,9,2.46,PH,1728675706
476,huambo,-12.7761,15.7392,297.04,23,0,2.57,AO,1728675622
477,punta del este,-34.9667,-54.95,295.21,95,0,5.14,UY,1728675709
478,barra,-11.0894,-43.1417,306.16,35,95,4.0,BR,1728675710
479,shalqar,47.8333,59.6,276.91,58,100,6.91,KZ,1728675712
480,sadjoavato,-12.6334,49.349,295.14,75,0,5.63,MG,1728675713
481,nuuk,64.1835,-51.7216,272.49,86,40,7.72,GL,1728675473
482,pacific grove,36.6177,-121.9166,289.5,95,75,3.6,US,1728675716
483,tukrah,32.5341,20.5791,301.87,40,0,1.35,LY,1728675717
484,severo-yeniseyskiy,60.3725,93.0408,261.48,99,98,0.39,RU,1728675720
485,colesberg,-30.72,25.0972,296.95,12,84,4.48,ZA,1728675722
486,burlington,39.8835,-74.6413,294.24,40,0,6.17,US,1728675609
487,la sarre,48.8002,-79.1996,286.73,72,100,3.71,CA,1728675725
488,tshikapa,-6.4167,20.8,295.04,93,76,2.76,CD,1728675727
489,prince george,53.9166,-122.753,281.84,71,0,1.03,CA,1728675728
490,usinsk,65.9939,57.5281,269.63,76,99,8.42,RU,1728675729
491,faaa,-17.55,-149.6,301.13,69,75,2.57,PF,1728675591
492,guerrero negro,27.9769,-114.0611,301.93,44,4,4.77,MX,1728675590
493,galveston,29.3669,-94.9669,304.84,48,0,2.57,US,1728675734
494,ambon,-3.6954,128.1814,300.92,97,40,1.54,ID,1728675736
495,rurrenabaque,-14.4413,-67.5278,309.98,41,40,5.66,BO,1728675737
496,khandyga,62.6667,135.6,274.27,87,100,1.78,RU,1728675738
497,rikaze,29.25,88.8833,281.14,33,0,0.24,CN,1728675740
498,alotau,-10.3069,150.4462,296.69,96,100,1.56,PG,1728675742
499,vila nova de foz coa,41.0637,-7.2039,287.89,89,100,3.53,PT,1728675743
500,itapolis,-21.5956,-48.8128,305.21,39,81,6.31,BR,1728675745
501,valparaiso,-33.0393,-71.6273,292.28,65,40,4.12,CL,1728675748
502,maquoketa,42.0689,-90.6657,302.13,31,100,3.58,US,1728675749
503,samaniego,1.3385,-77.5957,294.79,87,93,2.28,CO,1728675751
504,palopo,-2.9996,120.1921,297.35,89,97,1.08,ID,1728675753
505,kirakira,-10.4544,161.9205,299.65,83,98,1.79,SB,1728675755
506,mitsamiouli,-11.3847,43.2844,298.91,77,6,1.72,KM,1728675758
507,gadzhiyevo,69.2551,33.3362,281.52,91,100,8.47,RU,1728675760
508,ceeldheer,3.8488,47.1806,298.75,86,100,7.22,SO,1728675761
509,timaru,-44.4,171.25,283.75,72,100,1.79,NZ,1728675762
510,tamandare,-8.7597,-35.1047,298.3,67,100,4.15,BR,1728675764
511,praia,14.9215,-23.5087,300.45,83,100,4.63,CV,1728675557
512,santa vitoria do palmar,-33.5189,-53.3681,291.61,90,100,2.06,BR,1728675766
513,lianzhou,24.7811,112.3825,292.02,75,4,0.41,CN,1728675768
514,egersund,58.4513,5.9997,281.52,66,67,6.93,NO,1728675769
515,palmer,42.1584,-72.3287,293.86,36,20,5.66,US,1728675771
516,letlhakeng,-24.0944,25.0298,298.0,22,25,3.36,BW,1728675772
517,vila franca do campo,37.7167,-25.4333,291.42,99,43,6.8,PT,1728675773
518,ulsteinvik,62.3432,5.8487,277.77,87,100,0.89,NO,1728675775
519,gondar,12.6,37.4667,288.21,74,79,1.66,ET,1728675776
520,jaggayyapeta,16.9,80.1,297.65,94,91,1.99,IN,1728675778
521,bodo,67.28,14.405,277.17,83,40,7.2,NO,1728675779
522,carnarvon,-24.8667,113.6333,293.3,86,0,6.21,AU,1728675780
523,lazaro cardenas,17.9583,-102.2,302.44,72,78,3.78,MX,1728675734
524,west end,26.6833,-78.9667,300.17,69,9,9.96,BS,1728675784
525,seme,15.1942,-12.9448,306.0,45,96,2.82,SN,1728675785
526,chinsali,-10.5414,32.0816,290.38,77,100,2.67,ZM,1728675787
527,palikir - national government center,6.9248,158.1611,297.56,100,75,0.0,FM,1728675788
528,i-n-salah,27.1935,2.4607,307.31,14,0,3.69,DZ,1728675789
529,nadi,-17.8,177.4167,297.15,83,75,0.0,FJ,1728675791
530,hotan,37.0997,79.9269,289.9,32,5,1.94,CN,1728675792
531,orcopampa,-15.2661,-72.3417,289.87,22,15,7.37,PE,1728675794
532,huicungo,-7.2833,-76.8,305.29,62,75,1.54,PE,1728675796
533,ghanzi,-21.5667,21.7833,297.37,20,40,3.53,BW,1728675798
534,touros,-5.1989,-35.4608,298.53,74,72,6.99,BR,1728675799
535,hailin,44.5833,129.4167,279.94,83,0,1.05,CN,1728675800
536,kayangel,8.0823,134.7173,301.98,71,8,2.23,PW,1728675802
537,aykhal,66.0,111.5,261.25,96,98,3.03,RU,1728675804
538,alice springs,-23.7,133.8833,294.9,23,100,3.09,AU,1728675805
539,nikolayevsk-on-amure,53.1406,140.73,277.04,80,68,1.71,RU,1728675806
540,oranjemund,-28.55,16.4333,288.6,77,0,2.92,NA,1728675808
541,amga,60.8953,131.9608,272.57,97,100,4.09,RU,1728675809
542,la paz,-16.5,-68.15,292.14,13,20,4.12,BO,1728675464
543,hanzhong,33.0728,107.0303,288.38,98,100,0.99,CN,1728675814
544,elmadag,39.9208,33.2308,292.23,47,100,1.67,TR,1728675815
545,lepsy,46.235,78.9456,285.33,73,100,11.47,KZ,1728675817
546,chipiona,36.7366,-6.437,295.27,94,100,5.14,ES,1728675818
547,pisco,-13.7,-76.2167,294.83,82,20,4.63,PE,1728675820
548,chicoana,-25.1009,-65.5331,300.18,25,0,4.72,AR,1728675821
549,hirara,24.8,125.2833,298.07,83,100,3.09,JP,1728675823
550,kailua-kona,19.6406,-155.9956,302.19,77,0,5.66,US,1728675824
551,lerwick,60.1545,-1.1494,278.51,54,100,0.58,GB,1728675826
552,caluula,11.9661,50.7569,300.73,70,3,5.52,SO,1728675828
553,pointe-noire,-4.7761,11.8635,298.8,87,61,4.59,CG,1728675829
554,puerto deseado,-47.7503,-65.8938,285.19,40,100,1.66,AR,1728675831
555,lively,46.4334,-81.1498,289.83,67,100,5.22,CA,1728675833
556,jiexiu,37.0244,111.9125,289.71,33,99,1.17,CN,1728675835
557,prince rupert,54.3161,-130.3201,283.2,75,0,2.57,CA,1728675747
558,aztec,36.8222,-107.9929,299.38,15,79,2.22,US,1728675838
559,tsiombe,-25.3,45.4833,294.98,76,85,3.09,MG,1728675839
560,trincomalee,8.5711,81.2335,298.89,86,99,6.39,LK,1728675841
561,kirkland lake,48.1446,-80.0377,290.31,63,100,3.6,CA,1728675842
562,gamay,12.3854,125.2979,298.07,93,100,1.22,PH,1728675845
563,saposoa,-6.934,-76.7716,305.6,44,94,1.14,PE,1728675846
564,mkushi,-13.6202,29.3939,292.59,52,16,3.51,ZM,1728675848
565,mitchell,43.7094,-98.0298,292.14,42,0,6.17,US,1728675849
566,zhongshan,21.3226,110.5829,298.59,79,99,5.29,CN,1728675851
567,williams lake,52.1415,-122.1445,284.29,63,20,4.63,CA,1728675852
568,sosua,19.7667,-70.5167,306.1,70,20,3.09,DO,1728675854
569,vila velha,-20.3297,-40.2925,297.12,97,100,3.6,BR,1728675855
570,cill airne,52.05,-9.5167,281.94,59,100,0.72,IE,1728675856
571,gordonvale,-17.0936,145.7842,296.03,92,31,1.94,AU,1728675858
572,balkh,36.75,67.0,297.15,23,0,3.98,AF,1728675859
573,undurkhaan,47.3194,110.6556,278.19,60,10,3.51,MN,1728675861
574,fort st. john,56.2499,-120.8529,283.09,46,20,4.63,CA,1728675862
575,sa pa,22.3402,103.8441,286.89,93,95,0.36,VN,1728675863
576,the pas,53.8251,-101.2541,286.16,50,0,2.57,CA,1728675865
577,hwange,-18.3693,26.5019,296.11,26,0,1.27,ZW,1728675866
578,karukh,34.4811,62.5863,292.43,24,0,4.01,AF,1728675867
579,dul'durga,50.6761,113.5931,271.18,55,96,1.74,RU,1728675869
580,shizuishan,39.2333,106.7694,287.67,62,99,3.35,CN,1728675870
581,zambezi,-13.5432,23.1047,292.39,19,0,3.01,ZM,1728675872
582,magong,23.5654,119.5863,298.37,78,2,11.71,TW,1728675873
583,las heras,-46.5419,-68.9359,285.94,24,89,10.43,AR,1728675824
584,berdigestyakh,62.0989,126.6992,264.9,96,100,2.32,RU,1728675877
585,betio village,1.358,172.9211,301.17,68,76,5.3,KI,1728675878
586,vernon,50.2581,-119.2691,286.93,39,100,0.67,CA,1728675880
587,awjilah,29.1081,21.2869,304.59,20,4,3.44,LY,1728675881
588,turabah,21.2141,41.6331,297.6,39,5,0.94,SA,1728675882
589,vorkuta,67.5,64.0,264.98,85,100,2.96,RU,1728675884
590,gandajika,-6.75,23.95,292.63,90,63,0.71,CD,1728675885
591,zhalantun,48.0,122.7167,275.33,47,3,2.84,CN,1728675887
592,nema,57.5067,50.5011,270.38,62,66,2.69,RU,1728675888
593,jendouba,36.5011,8.7802,296.16,56,40,2.06,TN,1728675891
594,paramaribo,5.8667,-55.1667,304.1,66,40,4.12,SR,1728675893
595,jayapura,-2.5333,140.7,298.81,95,78,2.46,ID,1728675894
596,mindelo,16.8901,-24.9804,299.9,78,75,7.72,CV,1728675895
